[
  {
    "id": "shenandoah_national_park",
    "name": "Shenandoah National Park",
    "lat": 38.4754706,
    "lng": -78.4534573,
    "category": "misc",
    "league": null,
    "sport": null,
    "level": null,
    "events": [],
    "images": []
  },
  {
    "id": "great_smoky_mountains_national_park",
    "name": "Great Smoky Mountains National Park",
    "lat": 35.6130503,
    "lng": -83.5531537,
    "category": "misc",
    "league": null,
    "sport": null,
    "level": null,
    "events": [],
    "images": []
  },
  {
    "id": "gateway_arch_national_park",
    "name": "Gateway Arch National Park",
    "lat": 38.6248848,
    "lng": -90.1858982,
    "category": "misc",
    "league": null,
    "sport": null,
    "level": null,
    "events": [
      {
        "date": "2023-04-14",
        "description": "Visited"
      },
      {
        "date": "2025-03-13",
        "description": "Visited"
      }
    ],
    "images": []
  },
  {
    "id": "cuyahoga_valley_national_park",
    "name": "Cuyahoga Valley National Park",
    "lat": 41.2808248,
    "lng": -81.567812,
    "category": "misc",
    "league": null,
    "sport": null,
    "level": null,
    "events": [],
    "images": []
  },
  {
    "id": "barclays_center",
    "name": "Barclays Center",
    "lat": 40.6826465,
    "lng": -73.9754156,
    "category": "misc",
    "league": null,
    "sport": null,
    "level": null,
    "events": [
      {
        "date": "2024-01-25",
        "description": "Visited"
      },
      {
        "date": "2024-04-06",
        "description": "Visited"
      },
      {
        "date": "2024-12-16",
        "description": "Visited"
      },
      {
        "date": "2025-11-11",
        "description": "Visited"
      }
    ],
    "images": []
  },
  {
    "id": "madison_square_garden",
    "name": "Madison Square Garden",
    "lat": 40.7505045,
    "lng": -73.9934387,
    "category": "misc",
    "league": null,
    "sport": null,
    "level": null,
    "events": [
      {
        "date": "2024-04-01",
        "description": "Visited"
      }
    ],
    "images": []
  },
  {
    "id": "yankee_stadium",
    "name": "Yankee Stadium",
    "lat": 40.8296426,
    "lng": -73.9261745,
    "category": "misc",
    "league": null,
    "sport": null,
    "level": null,
    "events": [
      {
        "date": "2023-07-09",
        "description": "Visited"
      },
      {
        "date": "2024-05-04",
        "description": "Visited"
      },
      {
        "date": "2024-08-22",
        "description": "Visited"
      },
      {
        "date": "2025-06-04",
        "description": "Visited"
      },
      {
        "date": "2025-06-05",
        "description": "Visited"
      },
      {
        "date": "2025-07-28",
        "description": "Visited"
      }
    ],
    "images": []
  },
  {
    "id": "citi_field",
    "name": "Citi Field",
    "lat": 40.7570877,
    "lng": -73.8458213,
    "category": "misc",
    "league": null,
    "sport": null,
    "level": null,
    "events": [
      {
        "date": "2024-05-05",
        "description": "Visited"
      },
      {
        "date": "2024-06-30",
        "description": "Visited"
      }
    ],
    "images": []
  },
  {
    "id": "cleveland_browns_stadium",
    "name": "Cleveland Browns Stadium",
    "lat": 41.5060535,
    "lng": -81.6995481,
    "category": "misc",
    "league": null,
    "sport": null,
    "level": null,
    "events": [
      {
        "date": "2023-12-28",
        "description": "Visited"
      }
    ],
    "images": []
  },
  {
    "id": "gainbridge_fieldhouse",
    "name": "Gainbridge Fieldhouse",
    "lat": 39.7640434,
    "lng": -86.1555367,
    "category": "misc",
    "league": null,
    "sport": null,
    "level": null,
    "events": [],
    "images": []
  },
  {
    "id": "busch_stadium",
    "name": "Busch Stadium",
    "lat": 38.6226188,
    "lng": -90.1928209,
    "category": "misc",
    "league": null,
    "sport": null,
    "level": null,
    "events": [
      {
        "date": "2023-04-13",
        "description": "Visited"
      }
    ],
    "images": []
  },
  {
    "id": "doubleday_field",
    "name": "Doubleday Field",
    "lat": 42.6991497,
    "lng": -74.9269079,
    "category": "misc",
    "league": null,
    "sport": null,
    "level": null,
    "events": [],
    "images": []
  },
  {
    "id": "progressive_field",
    "name": "Progressive Field",
    "lat": 41.4958921,
    "lng": -81.6852949,
    "category": "misc",
    "league": null,
    "sport": null,
    "level": null,
    "events": [
      {
        "date": "2024-06-18",
        "description": "Visited"
      },
      {
        "date": "2025-05-28",
        "description": "Visited"
      }
    ],
    "images": []
  },
  {
    "id": "metlife_stadium",
    "name": "MetLife Stadium",
    "lat": 40.8135064,
    "lng": -74.074457,
    "category": "misc",
    "league": null,
    "sport": null,
    "level": null,
    "events": [
      {
        "date": "2024-08-08",
        "description": "Visited"
      },
      {
        "date": "2025-11-09",
        "description": "Visited"
      }
    ],
    "images": []
  },
  {
    "id": "usta_billie_jean_king_national_tennis_center",
    "name": "USTA Billie Jean King National Tennis Center",
    "lat": 40.7503676,
    "lng": -73.8456118,
    "category": "misc",
    "league": null,
    "sport": null,
    "level": null,
    "events": [
      {
        "date": "2024-08-27",
        "description": "Visited"
      },
      {
        "date": "2024-08-27",
        "description": "Visited"
      },
      {
        "date": "2024-08-27",
        "description": "Visited"
      },
      {
        "date": "2024-08-27",
        "description": "Visited"
      },
      {
        "date": "2024-08-27",
        "description": "Visited"
      },
      {
        "date": "2024-08-27",
        "description": "Visited"
      }
    ],
    "images": []
  },
  {
    "id": "upmc_park",
    "name": "UPMC Park",
    "lat": 42.1273567,
    "lng": -80.0800819,
    "category": "misc",
    "league": null,
    "sport": null,
    "level": null,
    "events": [
      {
        "date": "2023-06-11",
        "description": "Visited"
      }
    ],
    "images": []
  },
  {
    "id": "classic_auto_group_park",
    "name": "Classic Auto Group Park",
    "lat": 41.641007,
    "lng": -81.4358712,
    "category": "misc",
    "league": null,
    "sport": null,
    "level": null,
    "events": [
      {
        "date": "2024-09-17",
        "description": "Visited"
      }
    ],
    "images": []
  },
  {
    "id": "ohio_stadium",
    "name": "Ohio Stadium",
    "lat": 40.0022328,
    "lng": -83.0196892,
    "category": "misc",
    "league": null,
    "sport": null,
    "level": null,
    "events": [
      {
        "date": "2024-09-21",
        "description": "Visited"
      }
    ],
    "images": []
  },
  {
    "id": "northwest_stadium",
    "name": "Northwest Stadium",
    "lat": 38.9081324,
    "lng": -76.8639884,
    "category": "misc",
    "league": null,
    "sport": null,
    "level": null,
    "events": [
      {
        "date": "2024-10-06",
        "description": "Visited"
      }
    ],
    "images": []
  },
  {
    "id": "stroh_center",
    "name": "Stroh Center",
    "lat": 41.3752336,
    "lng": -83.6262187,
    "category": "misc",
    "league": null,
    "sport": null,
    "level": null,
    "events": [
      {
        "date": "2024-12-21",
        "description": "Visited"
      }
    ],
    "images": []
  },
  {
    "id": "slater_family_ice_arena",
    "name": "Slater Family Ice Arena",
    "lat": 41.3790243,
    "lng": -83.6277666,
    "category": "misc",
    "league": null,
    "sport": null,
    "level": null,
    "events": [
      {
        "date": "2024-12-29",
        "description": "Visited"
      }
    ],
    "images": []
  },
  {
    "id": "prudential_center",
    "name": "Prudential Center",
    "lat": 40.733537,
    "lng": -74.1710659,
    "category": "misc",
    "league": null,
    "sport": null,
    "level": null,
    "events": [
      {
        "date": "2025-01-29",
        "description": "Visited"
      }
    ],
    "images": []
  },
  {
    "id": "rate_field",
    "name": "Rate Field",
    "lat": 41.8299301,
    "lng": -87.6337254,
    "category": "misc",
    "league": null,
    "sport": null,
    "level": null,
    "events": [
      {
        "date": "2025-05-02",
        "description": "Visited"
      }
    ],
    "images": []
  },
  {
    "id": "soldier_field",
    "name": "Soldier Field",
    "lat": 41.8623132,
    "lng": -87.6166884,
    "category": "misc",
    "league": null,
    "sport": null,
    "level": null,
    "events": [
      {
        "date": "2025-05-03",
        "description": "Visited"
      }
    ],
    "images": []
  },
  {
    "id": "comerica_park",
    "name": "Comerica Park",
    "lat": 42.3393053,
    "lng": -83.0488724,
    "category": "misc",
    "league": null,
    "sport": null,
    "level": null,
    "events": [
      {
        "date": "2025-05-25",
        "description": "Visited"
      }
    ],
    "images": []
  },
  {
    "id": "fifth_third_field",
    "name": "Fifth Third Field",
    "lat": 41.6485687,
    "lng": -83.5386609,
    "category": "misc",
    "league": null,
    "sport": null,
    "level": null,
    "events": [
      {
        "date": "2025-06-01",
        "description": "Visited"
      }
    ],
    "images": []
  },
  {
    "id": "maimonides_park",
    "name": "Maimonides Park",
    "lat": 40.5746915,
    "lng": -73.9844176,
    "category": "misc",
    "league": null,
    "sport": null,
    "level": null,
    "events": [
      {
        "date": "2025-07-29",
        "description": "Visited"
      }
    ],
    "images": []
  },
  {
    "id": "canal_park",
    "name": "Canal Park",
    "lat": 41.0781226,
    "lng": -81.522228,
    "category": "misc",
    "league": null,
    "sport": null,
    "level": null,
    "events": [
      {
        "date": "2025-08-19",
        "description": "Visited"
      }
    ],
    "images": []
  },
  {
    "id": "lower_com_field",
    "name": "Lower.com Field",
    "lat": 39.9684078,
    "lng": -83.0169305,
    "category": "misc",
    "league": null,
    "sport": null,
    "level": null,
    "events": [
      {
        "date": "2025-10-18",
        "description": "Visited"
      }
    ],
    "images": []
  },
  {
    "id": "sports_illustrated_stadium",
    "name": "Sports Illustrated Stadium",
    "lat": 40.7368436,
    "lng": -74.1502355,
    "category": "misc",
    "league": null,
    "sport": null,
    "level": null,
    "events": [
      {
        "date": "2025-10-04",
        "description": "Visited"
      }
    ],
    "images": []
  },
  {
    "id": "rocket_arena",
    "name": "Rocket Arena",
    "lat": 41.4965474,
    "lng": -81.6880574,
    "category": "misc",
    "league": null,
    "sport": null,
    "level": null,
    "events": [
      {
        "date": "2025-12-23",
        "description": "Visited"
      }
    ],
    "images": []
  },
  {
    "id": "yanitelli_recreational_life_center",
    "name": "Yanitelli Recreational Life Center",
    "lat": 40.7277258,
    "lng": -74.073102,
    "category": "misc",
    "league": null,
    "sport": null,
    "level": null,
    "events": [
      {
        "date": "2026-01-19",
        "description": "Visited"
      }
    ],
    "images": []
  },
  {
    "id": "zootampa_at_lowry_park",
    "name": "ZooTampa at Lowry Park",
    "lat": 28.0138361,
    "lng": -82.4699672,
    "category": "misc",
    "league": null,
    "sport": null,
    "level": null,
    "events": [
      {
        "date": "2024-03-11",
        "description": "Visited"
      }
    ],
    "images": []
  },
  {
    "id": "the_florida_aquarium",
    "name": "The Florida Aquarium",
    "lat": 27.943972,
    "lng": -82.4448747,
    "category": "misc",
    "league": null,
    "sport": null,
    "level": null,
    "events": [
      {
        "date": "2024-03-13",
        "description": "Visited"
      }
    ],
    "images": []
  },
  {
    "id": "bronx_zoo",
    "name": "Bronx Zoo",
    "lat": 40.8501415,
    "lng": -73.8767217,
    "category": "misc",
    "league": null,
    "sport": null,
    "level": null,
    "events": [
      {
        "date": "2024-08-10",
        "description": "Visited"
      }
    ],
    "images": []
  },
  {
    "id": "new_york_aquarium",
    "name": "New York Aquarium",
    "lat": 40.5740506,
    "lng": -73.9759251,
    "category": "misc",
    "league": null,
    "sport": null,
    "level": null,
    "events": [
      {
        "date": "2024-08-09",
        "description": "Visited"
      }
    ],
    "images": []
  },
  {
    "id": "toledo_zoo",
    "name": "Toledo Zoo",
    "lat": 41.6216435,
    "lng": -83.5825426,
    "category": "misc",
    "league": null,
    "sport": null,
    "level": null,
    "events": [
      {
        "date": "2024-09-16",
        "description": "Visited"
      }
    ],
    "images": []
  },
  {
    "id": "saint_louis_zoo",
    "name": "Saint Louis Zoo",
    "lat": 38.6349169,
    "lng": -90.2909775,
    "category": "misc",
    "league": null,
    "sport": null,
    "level": null,
    "events": [
      {
        "date": "2025-03-14",
        "description": "Visited"
      }
    ],
    "images": []
  },
  {
    "id": "lincoln_park_zoo",
    "name": "Lincoln Park Zoo",
    "lat": 41.921703,
    "lng": -87.6336403,
    "category": "misc",
    "league": null,
    "sport": null,
    "level": null,
    "events": [
      {
        "date": "2025-05-04",
        "description": "Visited"
      }
    ],
    "images": []
  },
  {
    "id": "shedd_aquarium",
    "name": "Shedd Aquarium",
    "lat": 41.8675726,
    "lng": -87.614038,
    "category": "misc",
    "league": null,
    "sport": null,
    "level": null,
    "events": [
      {
        "date": "2025-05-03",
        "description": "Visited"
      }
    ],
    "images": []
  },
  {
    "id": "akron_zoo",
    "name": "Akron Zoo",
    "lat": 41.078555,
    "lng": -81.5414397,
    "category": "misc",
    "league": null,
    "sport": null,
    "level": null,
    "events": [
      {
        "date": "2025-08-19",
        "description": "Visited"
      }
    ],
    "images": []
  },
  {
    "id": "shark_reef_aquarium_at_mandalay_bay",
    "name": "Shark Reef Aquarium at Mandalay Bay",
    "lat": 36.0887734,
    "lng": -115.1764706,
    "category": "misc",
    "league": null,
    "sport": null,
    "level": null,
    "events": [
      {
        "date": "2026-01-25",
        "description": "Visited"
      }
    ],
    "images": []
  },
  {
    "id": "niagara_falls_state_park",
    "name": "Niagara Falls State Park",
    "lat": 43.0837193,
    "lng": -79.0650351,
    "category": "misc",
    "league": null,
    "sport": null,
    "level": null,
    "events": [],
    "images": []
  },
  {
    "id": "adirondack_mountains",
    "name": "Adirondack Mountains",
    "lat": 44.1247154,
    "lng": -73.8693043,
    "category": "misc",
    "league": null,
    "sport": null,
    "level": null,
    "events": [],
    "images": []
  },
  {
    "id": "liberty_state_park",
    "name": "Liberty State Park",
    "lat": 40.7082213,
    "lng": -74.0349253,
    "category": "misc",
    "league": null,
    "sport": null,
    "level": null,
    "events": [],
    "images": []
  },
  {
    "id": "paterson_great_falls_national_historical_park",
    "name": "Paterson Great Falls National Historical Park",
    "lat": 40.9177347,
    "lng": -74.1797924,
    "category": "misc",
    "league": null,
    "sport": null,
    "level": null,
    "events": [
      {
        "date": "2024-08-30",
        "description": "Visited"
      }
    ],
    "images": []
  },
  {
    "id": "bear_mountain_state_park",
    "name": "Bear Mountain State Park",
    "lat": 41.2930083,
    "lng": -74.0001088,
    "category": "misc",
    "league": null,
    "sport": null,
    "level": null,
    "events": [
      {
        "date": "2025-05-12",
        "description": "Visited"
      }
    ],
    "images": []
  },
  {
    "id": "hocking_hills_state_park",
    "name": "Hocking Hills State Park",
    "lat": 39.4334877,
    "lng": -82.5482126,
    "category": "misc",
    "league": null,
    "sport": null,
    "level": null,
    "events": [],
    "images": []
  },
  {
    "id": "lake_placid_olympic_museum",
    "name": "Lake Placid Olympic Museum",
    "lat": 44.2837327,
    "lng": -73.9850425,
    "category": "misc",
    "league": null,
    "sport": null,
    "level": null,
    "events": [],
    "images": []
  },
  {
    "id": "national_baseball_hall_of_fame_and_museum",
    "name": "National Baseball Hall of Fame and Museum",
    "lat": 42.6999368,
    "lng": -74.9232137,
    "category": "misc",
    "league": null,
    "sport": null,
    "level": null,
    "events": [],
    "images": []
  },
  {
    "id": "national_gallery_of_art",
    "name": "National Gallery of Art",
    "lat": 38.891298,
    "lng": -77.019965,
    "category": "misc",
    "league": null,
    "sport": null,
    "level": null,
    "events": [
      {
        "date": "2024-10-05",
        "description": "Visited"
      }
    ],
    "images": []
  },
  {
    "id": "national_archives_museum",
    "name": "National Archives Museum",
    "lat": 38.8924797,
    "lng": -77.0229382,
    "category": "misc",
    "league": null,
    "sport": null,
    "level": null,
    "events": [
      {
        "date": "2024-10-05",
        "description": "Visited"
      }
    ],
    "images": []
  },
  {
    "id": "smithsonian_national_museum_of_american_history",
    "name": "Smithsonian National Museum of American History",
    "lat": 38.8912793,
    "lng": -77.0300509,
    "category": "misc",
    "league": null,
    "sport": null,
    "level": null,
    "events": [
      {
        "date": "2024-10-05",
        "description": "Visited"
      }
    ],
    "images": []
  },
  {
    "id": "national_portrait_gallery",
    "name": "National Portrait Gallery",
    "lat": 38.8978267,
    "lng": -77.023019,
    "category": "misc",
    "league": null,
    "sport": null,
    "level": null,
    "events": [
      {
        "date": "2024-10-04",
        "description": "Visited"
      }
    ],
    "images": []
  },
  {
    "id": "library_of_congress",
    "name": "Library of Congress",
    "lat": 38.888684,
    "lng": -77.004719,
    "category": "misc",
    "league": null,
    "sport": null,
    "level": null,
    "events": [
      {
        "date": "2024-10-04",
        "description": "Visited"
      }
    ],
    "images": []
  },
  {
    "id": "supreme_court_of_the_united_states",
    "name": "Supreme Court of the United States",
    "lat": 38.8906424,
    "lng": -77.0044398,
    "category": "misc",
    "league": null,
    "sport": null,
    "level": null,
    "events": [
      {
        "date": "2024-10-04",
        "description": "Visited"
      }
    ],
    "images": []
  },
  {
    "id": "united_states_capitol",
    "name": "United States Capitol",
    "lat": 38.8899389,
    "lng": -77.0090505,
    "category": "misc",
    "league": null,
    "sport": null,
    "level": null,
    "events": [
      {
        "date": "2024-10-04",
        "description": "Visited"
      }
    ],
    "images": []
  },
  {
    "id": "the_white_house",
    "name": "The White House",
    "lat": 38.8976763,
    "lng": -77.0365298,
    "category": "misc",
    "league": null,
    "sport": null,
    "level": null,
    "events": [
      {
        "date": "2024-10-04",
        "description": "Visited"
      }
    ],
    "images": []
  },
  {
    "id": "saint_louis_art_museum",
    "name": "Saint Louis Art Museum",
    "lat": 38.6393062,
    "lng": -90.2944911,
    "category": "misc",
    "league": null,
    "sport": null,
    "level": null,
    "events": [
      {
        "date": "2025-03-14",
        "description": "Visited"
      }
    ],
    "images": []
  },
  {
    "id": "missouri_history_museum",
    "name": "Missouri History Museum",
    "lat": 38.6452478,
    "lng": -90.2857383,
    "category": "misc",
    "league": null,
    "sport": null,
    "level": null,
    "events": [
      {
        "date": "2025-03-13",
        "description": "Visited"
      }
    ],
    "images": []
  },
  {
    "id": "world_chess_hall_of_fame",
    "name": "World Chess Hall of Fame",
    "lat": 38.6444755,
    "lng": -90.2610933,
    "category": "misc",
    "league": null,
    "sport": null,
    "level": null,
    "events": [
      {
        "date": "2025-03-14",
        "description": "Visited"
      }
    ],
    "images": []
  },
  {
    "id": "the_museum_of_modern_art",
    "name": "The Museum of Modern Art",
    "lat": 40.7614327,
    "lng": -73.9776216,
    "category": "misc",
    "league": null,
    "sport": null,
    "level": null,
    "events": [],
    "images": []
  },
  {
    "id": "the_morgan_library_museum",
    "name": "The Morgan Library & Museum",
    "lat": 40.7492258,
    "lng": -73.9813971,
    "category": "misc",
    "league": null,
    "sport": null,
    "level": null,
    "events": [],
    "images": []
  },
  {
    "id": "american_museum_of_natural_history",
    "name": "American Museum of Natural History",
    "lat": 40.7813241,
    "lng": -73.9739882,
    "category": "misc",
    "league": null,
    "sport": null,
    "level": null,
    "events": [],
    "images": []
  },
  {
    "id": "the_art_institute_of_chicago",
    "name": "The Art Institute of Chicago",
    "lat": 41.8796031,
    "lng": -87.6223504,
    "category": "misc",
    "league": null,
    "sport": null,
    "level": null,
    "events": [
      {
        "date": "2025-05-02",
        "description": "Visited"
      }
    ],
    "images": []
  },
  {
    "id": "field_museum",
    "name": "Field Museum",
    "lat": 41.866261,
    "lng": -87.6169805,
    "category": "misc",
    "league": null,
    "sport": null,
    "level": null,
    "events": [
      {
        "date": "2025-05-03",
        "description": "Visited"
      }
    ],
    "images": []
  },
  {
    "id": "stony_man_mountain_summit",
    "name": "Stony Man Mountain Summit",
    "lat": 38.5984809,
    "lng": -78.3736522,
    "category": "misc",
    "league": null,
    "sport": null,
    "level": null,
    "events": [],
    "images": []
  },
  {
    "id": "marys_rock_summit",
    "name": "Marys Rock Summit",
    "lat": 38.6499001,
    "lng": -78.3174363,
    "category": "misc",
    "league": null,
    "sport": null,
    "level": null,
    "events": [],
    "images": []
  },
  {
    "id": "bearfence_mountain",
    "name": "Bearfence Mountain",
    "lat": 38.4496119,
    "lng": -78.465774,
    "category": "misc",
    "league": null,
    "sport": null,
    "level": null,
    "events": [],
    "images": []
  },
  {
    "id": "old_rag_mountain_summit",
    "name": "Old Rag Mountain Summit",
    "lat": 38.5519143,
    "lng": -78.315031,
    "category": "misc",
    "league": null,
    "sport": null,
    "level": null,
    "events": [],
    "images": []
  },
  {
    "id": "mount_le_conte",
    "name": "Mount Le Conte",
    "lat": 35.6542611,
    "lng": -83.4368267,
    "category": "misc",
    "league": null,
    "sport": null,
    "level": null,
    "events": [],
    "images": []
  },
  {
    "id": "charlies_bunion",
    "name": "Charlies Bunion",
    "lat": 35.6393159,
    "lng": -83.3717643,
    "category": "misc",
    "league": null,
    "sport": null,
    "level": null,
    "events": [],
    "images": []
  },
  {
    "id": "algonquin_peak",
    "name": "Algonquin Peak",
    "lat": 44.1436635,
    "lng": -73.9865357,
    "category": "misc",
    "league": null,
    "sport": null,
    "level": null,
    "events": [],
    "images": []
  },
  {
    "id": "wright_peak",
    "name": "Wright Peak",
    "lat": 44.151641,
    "lng": -73.9795052,
    "category": "misc",
    "league": null,
    "sport": null,
    "level": null,
    "events": [],
    "images": []
  },
  {
    "id": "mount_colden",
    "name": "Mount Colden",
    "lat": 44.1271085,
    "lng": -73.9599012,
    "category": "misc",
    "league": null,
    "sport": null,
    "level": null,
    "events": [],
    "images": []
  },
  {
    "id": "cedar_point",
    "name": "Cedar Point",
    "lat": 41.4807905,
    "lng": -82.6834453,
    "category": "misc",
    "league": null,
    "sport": null,
    "level": null,
    "events": [
      {
        "date": "2024-06-17",
        "description": "Visited"
      }
    ],
    "images": []
  },
  {
    "id": "universal_islands_of_adventure",
    "name": "Universal Islands of Adventure",
    "lat": 28.4716879,
    "lng": -81.4701971,
    "category": "misc",
    "league": null,
    "sport": null,
    "level": null,
    "events": [],
    "images": []
  },
  {
    "id": "universal_studios_florida",
    "name": "Universal Studios Florida",
    "lat": 28.4793754,
    "lng": -81.4685422,
    "category": "misc",
    "league": null,
    "sport": null,
    "level": null,
    "events": [],
    "images": []
  },
  {
    "id": "disney_s_animal_kingdom_theme_park",
    "name": "Disney's Animal Kingdom Theme Park",
    "lat": 28.3574423,
    "lng": -81.5905788,
    "category": "misc",
    "league": null,
    "sport": null,
    "level": null,
    "events": [
      {
        "date": "2023-03-12",
        "description": "Visited"
      }
    ],
    "images": []
  },
  {
    "id": "disney_s_hollywood_studios",
    "name": "Disney's Hollywood Studios",
    "lat": 28.3580628,
    "lng": -81.5590975,
    "category": "misc",
    "league": null,
    "sport": null,
    "level": null,
    "events": [
      {
        "date": "2024-03-11",
        "description": "Visited"
      }
    ],
    "images": []
  },
  {
    "id": "epcot",
    "name": "Epcot",
    "lat": 28.3764687,
    "lng": -81.5494034,
    "category": "misc",
    "league": null,
    "sport": null,
    "level": null,
    "events": [
      {
        "date": "2025-02-03",
        "description": "Visited"
      }
    ],
    "images": []
  },
  {
    "id": "magic_kingdom_park",
    "name": "Magic Kingdom Park",
    "lat": 28.2012177,
    "lng": -81.5831307,
    "category": "misc",
    "league": null,
    "sport": null,
    "level": null,
    "events": [
      {
        "date": "2025-02-02",
        "description": "Visited"
      }
    ],
    "images": []
  },
  {
    "id": "stanford_university",
    "name": "Stanford University",
    "lat": 37.4232786,
    "lng": -122.1673565,
    "category": "misc",
    "league": null,
    "sport": null,
    "level": null,
    "events": [
      {
        "date": "2025-02-16",
        "description": "Visited"
      },
      {
        "date": "2025-02-19",
        "description": "Visited"
      }
    ],
    "images": []
  },
  {
    "id": "university_of_kansas",
    "name": "University of Kansas",
    "lat": 38.9572995,
    "lng": -95.2526087,
    "category": "misc",
    "league": null,
    "sport": null,
    "level": null,
    "events": [
      {
        "date": "2025-04-14",
        "description": "Visited"
      },
      {
        "date": "2025-04-16",
        "description": "Visited"
      }
    ],
    "images": []
  },
  {
    "id": "r_o_grande_puerto_rico",
    "name": "Río Grande, Puerto Rico",
    "lat": 18.4179512,
    "lng": -65.7933158,
    "category": "misc",
    "league": null,
    "sport": null,
    "level": null,
    "events": [
      {
        "date": "2024-03-28",
        "description": "Visited"
      },
      {
        "date": "2024-03-31",
        "description": "Visited"
      }
    ],
    "images": []
  }
]